Latitude;Longitude;Time;Date;Number of Sats;GPS Speed (Kn);GPS True Heading;GPS Magnetic Variation;HDOP;C Magnetic Heading;C True Heading;Pitch Angle;Roll Angle;C Inside Temp (c);DFS Depth (m);DTB Height (m);Total Water Column (m);Batt Percent;Power Watts;Watt-Hours;Batt Volts;Batt Ampers;Batt State;Time to Empty;Current Step;Dist To Next (m);Next Speed (kn);Vehicle Speed (kn);Motor Speed CMD;Next Heading;Next Long;Next Lat;Next Depth (m);Depth Goal (m);Vehicle State;Error State;Distance to Track (m);Fin Pitch R;Fin Pitch L;Pitch Goal;Fin Yaw T;Fin Yaw B;Yaw Goal;Fin Roll;DVL-X-Speed(m/s);DVL-Y-Speed(m/s);DVl-Temperature(c);Conductivity (mmhos/cm);CTD-Temperature (c);Salinity (ppt);Sound Speed (m/s);
35.922386;14.501679;14:31:42.96;6/29/2017;10;0.946;219.65;2.27258492511768;0.87;296.7;303.24;0.87;-16.9;45;.01;30.69;30.70;97.4;53;640.2;16.06;-3.3;D;724.7548;0;95.640;3;0;128;64.64;14.50263657;35.9227552;0;0;1;N;68.16833;63;63;11;250;250;101.9671;0;0.1215888;0.1814753;35.5;0;35.5;21.298;1543.2;
35.9223842489197;14.5016770606406;14:31:43.97;6/29/2017;10;0.329;219.65;2.27258492511768;0.87;300.9;307.44;0.96;-11;45;.01;31.44;31.45;97.4;53;640.2;16.06;-3.3;D;724.7548;0;95.881;3;0.3;195;64.58;14.50263657;35.9227552;0;0;1;N;68.16833;62;62;11;250;250;64.63805;0;4.481896E-02;0.148718;35.5;0;35.5;21.301;1543.203;
35.922383731575;14.5016762354249;14:31:44.99;6/29/2017;10;0.247;219.65;2.27258492511768;0.87;304.5;311.02;3.13;-4.55;44.9;.03;31.31;31.34;97.4;54;640.2;15.88;-3.4;D;711.3334;0;95.973;3;0.34;195;64.57;14.50263657;35.9227552;0;0;1;N;68.16833;76;76;11;250;250;64.57109;0;-7.064098E-03;0.1767523;35.5;0;35.5;21.355;1543.256;
35.9223845142636;14.5016721077421;14:31:46.00;6/29/2017;10;0.784;239.73;2.27258492511768;0.87;303;309.53;-0.52;-8.4;45;.01;32.13;32.14;97.4;54;640.2;15.88;-3.4;D;711.3334;0;96.273;3;0.37;195;64.71;14.50263657;35.9227552;0;0;1;N;68.16833;54;54;11;250;250;64.70134;0;0.1556286;0.1097986;35.5;0;35.5;21.277;1543.181;
35.9223849962302;14.501666689783;14:31:47.02;6/29/2017;10;0.888;260.98;2.27258492511768;0.87;305.5;312.02;-0.37;-3.3;45.1;.02;32.12;32.14;97.4;54;640.2;15.88;-3.4;D;711.3334;0;96.692;3;0.69;195;64.86;14.50263657;35.9227552;0;0;1;N;68.16833;55;55;11;250;250;64.85052;0;0.2502586;0.2510959;35.5;0;35.5;21.18;1543.087;
35.9223867823876;14.5016602642135;14:31:48.03;6/29/2017;10;1.179;280.51;2.27258492511768;0.87;311.9;318.34;1.5;-6.9;45.1;.01;31.75;31.77;97.4;95;640.2;16.1;-5.9;D;404.3369;0;97.134;3;0.95;195;65.11;14.50263657;35.9227552;0;0;1;N;68.16833;67;67;11;250;250;65.08818;0;0.4470987;0.1996249;35.5;0;35.5;21.223;1543.128;
35.9223889910716;14.5016539609085;14:31:49.04;6/29/2017;10;1.187;284.64;2.27258492511768;0.87;311.1;317.56;0.95;-3.24;45.2;.02;31.59;31.61;97.4;95;640.2;16.1;-5.9;D;404.3369;0;97.548;3;1.01;195;65.38;14.50263657;35.9227552;0;0;1;N;68.16833;63;63;11;250;250;65.35726;0;0.4809484;0.1961862;35.5;0;35.5;21.241;1543.146;
35.9223916633486;14.5016477468025;14:31:50.06;6/29/2017;10;1.231;290.87;2.27258492511768;0.87;322.4;328.64;1.13;-5.79;45.1;.01;31.71;31.72;97.4;95;640.2;16.1;-5.9;D;404.3369;0;97.936;3;1.08;195;65.68;14.50263657;35.9227552;0;0;1;N;68.16833;64;64;11;250;250;65.63432;0;0.5420743;0.1266829;35.5;0;35.5;21.156;1543.063;
35.9223968133335;14.5016413561579;14:31:51.07;6/29/2017;10;1.622;313.74;2.27258492511768;0.87;314.6;321;1.36;6.75;45.1;.02;31.52;31.53;97.4;111;640.1;16.09;-6.9;D;346;0;98.229;3;1.41;195;66.12;14.50263657;35.9227552;0;0;1;N;68.16833;65;65;11;250;250;66.07541;0;0.6938314;0.2137622;35.5;0;35.5;21.052;1542.964;
35.9224018548428;14.5016334077386;14:31:52.09;6/29/2017;10;1.676;302.5;2.27258492511768;0.87;323.5;329.71;0.94;-14.3;45.1;.01;31.81;31.82;97.4;111;640.1;16.09;-6.9;D;346;0;98.662;3;1.41;195;66.59;14.50263657;35.9227552;0;0;1;N;68.16833;63;63;11;250;250;66.54189;0;0.7062174;0.1564335;35.5;0;35.5;21.016;1542.929;
35.9224072804739;14.501625519264;14:31:53.10;6/29/2017;10;1.64;311.54;2.27258492511768;0.87;326.4;332.53;0.88;0.46;45.1;.03;32.02;32.05;97.4;122;640.0;16.27;-7.5;D;314.7541;0;99.079;3;1.57;195;67.07;14.50263657;35.9227552;0;0;1;N;68.16833;62;62;11;250;250;67.01283;0;0.7828985;0.1884617;35.44;0;35.44;21.135;1542.925;
35.9224123679299;14.501621006433;14:31:54.13;6/29/2017;10;1.491;315.9;2.27258492511768;0.87;330.1;336.13;1.86;-4.34;45.1;.01;31.97;31.98;97.4;122;640.0;16.27;-7.5;D;314.7541;0;99.237;3;1.49;195;67.46;14.50263657;35.9227552;0;0;1;N;68.16833;63;63;11;250;250;67.40565;0;0.7524912;0.1489274;35.44;0;35.44;21.021;1542.813;
35.9224178778858;14.5016157786258;14:31:55.14;6/29/2017;10;1.304;317.82;2.27258492511768;0.87;337.2;343;2;-3.67;45.1;.03;31.37;31.40;97.4;122;640.0;16.27;-7.5;D;314.7541;0;99.441;3;1.42;200;67.89;14.50263657;35.9227552;0;0;1;N;0.270396;69;69;11;250;250;69.52215;0;0.6929785;0.1550201;35.44;0;35.44;21.166;1542.955;
35.9224235320603;14.5016118203753;14:31:56.16;6/29/2017;10;1.588;324.57;2.27258492511768;0.87;336.6;342.42;1.98;-5.41;45.2;.03;31.29;31.32;97.4;131;639.9;16.17;-8.1;D;293.084;0;99.538;3;1.43;205;68.3;14.50263657;35.9227552;0;0;1;N;0.9729822;70;70;11;250;250;74.33877;0;0.7260495;0.1191898;35.44;0;35.44;17.033;1538.967;
35.9224304230941;14.50160803976;14:31:57.17;6/29/2017;10;1.749;332.22;2.27258492511768;0.87;343.3;348.89;3.51;-0.83;45.2;.03;31.33;31.36;97.4;131;639.9;16.17;-8.1;D;293.084;0;99.576;3;1.61;205;68.78;14.50263657;35.9227552;0;0;1;N;1.797884;73;73;11;250;250;79.83022;0;0.814295;0.1617881;35.44;0;35.44;21.07;1542.862;
35.9224374660169;14.5016038249769;14:31:58.18;6/29/2017;10;1.62;332.83;2.27258492511768;0.87;344.8;350.33;1.56;-0.28;45.2;.03;31.46;31.49;97.4;131;639.9;16.17;-8.1;D;293.084;0;99.652;3;1.67;208;69.28;14.50263657;35.9227552;0;0;1;N;2.661597;69;69;11;250;250;85.21545;0;0.8388542;0.2173583;35.38;0;35.42;21.077;1542.829;
35.9224456467244;14.5016000549813;14:31:59.20;6/29/2017;10;1.711;335.94;2.27258492511768;0.87;352.9;358.13;0.97;7.7;45.2;.01;31.40;31.41;97.3;177;639.8;16.09;-11;D;216.8813;0;99.654;3;1.63;208;69.84;14.50263657;35.9227552;0;0;1;N;3.646883;59;59;11;250;250;91.2034;0;0.8093185;0.2201456;35.4;0;35.4;21.006;1542.719;
35.9224542068203;14.5015980267524;14:32:00.21;6/29/2017;10;1.718;344.36;2.27258492511768;0.87;352.3;357.55;1.98;-6.47;45.2;.03;31.38;31.42;97.3;177;639.8;16.09;-11;D;216.8813;0;99.503;3;1.71;206;70.39;14.50263657;35.9227552;0;0;1;N;4.565053;71;71;11;250;250;97.2462;0;0.8689533;0.1307099;35.42;0;35.42;21.227;1542.974;
35.9224619114598;14.5015991653865;14:32:01.23;6/29/2017;10;1.667;352.92;2.27258492511768;0.87;5.5;10.22;1.31;7.96;45.2;.02;31.36;31.38;97.3;177;639.8;16.09;-11;D;216.8813;0;99.122;3;1.66;205;70.83;14.50263657;35.9227552;0;0;1;N;5.342589;64;64;11;250;250;101.4728;0;0.848551;0.1026075;35.38;0;35.38;20.842;1542.522;
35.9224696924382;14.5015975347616;14:32:02.24;6/29/2017;10;1.747;350.17;2.27258492511768;0.87;6.9;11.57;5.04;-0.72;45.2;.04;31.44;31.47;97.3;168;639.7;16;-10.5;D;228.4643;0;98.981;3;1.73;203;71.33;14.50263657;35.9227552;0;0;1;N;6.204141;87;87;11;250;250;105.5471;0;0.88025;0.1444477;35.38;0;35.38;21.103;1542.774;
35.922477497767;14.5015971705473;14:32:03.25;6/29/2017;10;1.587;352.13;2.27258492511768;0.87;20.8;24.89;1.1;-2.44;45.2;.03;31.55;31.58;97.3;168;639.7;16;-10.5;D;228.4643;0;98.739;3;1.56;202;71.82;14.50263657;35.9227552;0;0;1;N;7.036613;65;65;11;250;250;109.1;0;0.7916127;0.1435115;35.38;0;35.38;21.459;1543.118;
35.9224855133877;14.501597837979;14:32:04.29;6/29/2017;10;1.543;1.62;2.27258492511768;0.87;20.5;24.6;2.19;5.32;45.3;.01;31.55;31.57;97.3;168;639.7;16;-10.5;D;228.4643;0;98.407;3;1.6;201;72.3;14.50263657;35.9227552;0;0;1;N;7.822954;71;71;11;250;250;112.1351;0;0.8056492;0.1562795;35.38;0;35.38;20.988;1542.661;
35.9224925711001;14.5016023444021;14:32:05.30;6/29/2017;10;1.744;9.56;2.27258492511768;0.87;33.3;36.85;4.59;-6.39;45.3;.05;31.39;31.43;97.3;153;639.6;16.11;-9.5;D;250.8235;0;97.784;3;1.68;201;72.66;14.50263657;35.9227552;0;0;1;N;8.414932;85;85;11;250;250;114.2308;0;0.8597081;5.851694E-02;35.38;0;35.38;20.86;1542.54;
35.9224968687663;14.5016063883722;14:32:06.31;6/29/2017;10;1.312;20.16;2.27258492511768;0.87;37.1;40.48;2.72;-2.33;45.3;.03;31.86;31.89;97.3;153;639.6;16.11;-9.5;D;250.8235;0;97.294;3;1.46;200;72.87;14.50263657;35.9227552;0;0;1;N;8.732911;72;72;11;250;250;115.2939;0;0.7486509;-2.401688E-03;35.38;0;35.38;21.07;1542.743;
35.9225037627844;14.5016122669419;14:32:07.32;6/29/2017;10;1.827;26.87;2.27258492511768;0.87;44.4;47.45;5.57;-3.82;45.3;.05;31.40;31.44;97.3;153;639.6;16.11;-9.5;D;250.8235;0;96.563;3;1.65;199;73.21;14.50263657;35.9227552;0;0;1;N;9.240584;90;90;11;250;250;116.9061;0;0.8476703;6.762122E-02;35.31;0;35.36;21.192;1542.821;
35.9225077434345;14.5016184505877;14:32:08.34;6/29/2017;10;1.194;34.94;2.27258492511768;0.87;52.9;55.56;2.41;-6.82;45.3;.04;31.52;31.56;97.3;153;639.6;16.11;-9.5;D;250.8235;0;95.902;3;1.41;199;73.36;14.50263657;35.9227552;0;0;1;N;9.462066;75;75;11;250;250;117.5782;0;0.69993;-3.922692E-02;35.31;0;35.31;21.48;1543;
35.9225115319613;14.5016255638437;14:32:09.36;6/29/2017;10;1.678;42.97;2.27258492511768;0.87;62;64.22;5.07;2.18;45.3;.04;31.59;31.63;97.3;153;639.6;16.11;-9.5;D;250.8235;0;95.166;3;1.47;199;73.49;14.50263657;35.9227552;0;0;1;N;9.616632;84;84;11;250;250;118.0365;0;0.7535157;1.689881E-02;35.31;0;35.31;21.539;1543.055;
35.9225162364184;14.5016333147229;14:32:10.37;6/29/2017;10;1.495;46.59;2.27258492511768;0.87;64.2;66.31;3.2;-3.65;45.3;.05;31.77;31.82;97;122;633.6;16.05;-7.6;D;311.6065;0;94.348;3;1.47;198;73.68;14.50263657;35.9227552;0;0;1;N;9.836693;76;76;11;250;250;118.674;0;0.7568099;4.533929E-02;35.31;0;35.31;21.49;1543.01;
35.9225174256882;14.5016420589944;14:32:11.38;6/29/2017;10;1.507;65.48;2.27258492511768;0.87;77.6;79.02;2.95;-2.6;45.3;.03;31.64;31.67;97.1;139;639.4;16.16;-8.6;D;276;0;93.553;3;1.54;203;73.62;14.50263657;35.9227552;0;0;1;N;9.694139;69;69;11;250;250;118.2631;0;0.7882608;-7.863962E-02;35.31;0;35.31;21.896;1543.4;
35.9225168944053;14.501652535529;14:32:12.39;6/29/2017;10;1.633;74.36;2.27258492511768;0.87;73;74.66;4.7;-12;45.4;.05;31.53;31.59;97.1;139;639.4;16.16;-8.6;D;276;0;92.663;3;1.66;208;73.42;14.50263657;35.9227552;0;0;1;N;9.280961;85;85;11;250;250;117.0301;0;0.8446778;-0.1203134;35.31;0;35.31;21.472;1542.992;
35.9225156955329;14.501660283276;14:32:13.41;6/29/2017;10;1.561;88.29;2.27258492511768;0.87;84.6;85.66;1.37;2.15;45.4;.04;31.99;32.02;97.1;165;639.2;16.02;-10.3;D;232.4364;0;92.032;3;1.53;208;73.22;14.50263657;35.9227552;0;0;1;N;8.901572;68;68;11;225;225;115.841;0;0.7789795;-0.1119385;35.25;0;35.25;21.441;1542.841;
35.9225156506205;14.5016714458467;14:32:14.43;6/29/2017;10;2.022;83.63;2.27258492511768;0.87;87.2;88.12;2.58;4.27;45.3;.03;31.91;31.94;97.1;165;639.2;16.02;-10.3;D;232.4364;0;91.069;3;1.72;207;73.03;14.50263657;35.9227552;0;0;1;N;8.526737;70;70;11;211;211;114.6096;0;0.938074;-0.0751479;35.25;0;35.25;21.431;1542.831;
35.9225157317712;14.5016838110474;14:32:15.44;6/29/2017;10;1.866;86.06;2.27258492511768;0.87;92.3;92.95;4.54;2.62;45.3;.04;32.43;32.48;97.1;165;639.2;16.02;-10.3;D;232.4364;0;90.000;3;1.88;205;72.83;14.50263657;35.9227552;0;0;1;N;8.118067;85;85;11;195;195;113.1996;0;0.9654562;-5.374248E-02;35.25;0;35.25;21.554;1542.951;
35.9225141065286;14.5016943797369;14:32:16.45;6/29/2017;10;2.149;94.11;2.27258492511768;0.87;98.6;98.93;0.27;-4.45;45.3;.04;31.81;31.85;97.1;179;639.1;15.98;-11.2;D;214.2234;0;89.143;3;1.99;204;72.54;14.50263657;35.9227552;0;0;1;N;7.613748;65;65;11;172;172;111.357;0;1.020398;-6.535067E-02;35.25;0;35.25;21.735;1543.125;
35.9225098993213;14.5017069005689;14:32:17.46;6/29/2017;10;2.251;105.18;2.27258492511768;0.87;102.6;102.73;1.16;-0.87;45.4;.03;31.72;31.75;97.1;179;639.1;15.98;-11.2;D;214.2234;0;88.208;3;2.14;202;72.03;14.50263657;35.9227552;0;0;1;N;6.763899;61;61;11;151;151;107.9766;0;1.092413;-0.1500923;35.25;0;35.25;21.688;1543.079;
35.9225038914847;14.5017212812684;14:32:18.48;6/29/2017;10;2.305;108.58;2.27258492511768;0.87;107.2;107.11;4.25;-0.82;45.4;.03;31.77;31.80;97.1;179;639.1;15.98;-11.2;D;214.2234;0;87.186;3;2.28;202;71.35;14.50263657;35.9227552;0;0;1;N;5.670885;82;82;11;109;109;103.0752;0;1.18285;-0.1573817;35.25;0;35.25;22.005;1543.386;
35.9225012683429;14.5017328060058;14:32:19.49;6/29/2017;10;2.216;108.27;2.27258492511768;0.87;103.6;103.69;-2.7;3.34;45.4;.03;31.62;31.65;97.1;156;639.0;16.08;-9.7;D;245.7692;0;86.296;3;2.23;201;70.94;14.50263657;35.9227552;0;0;1;N;4.993588;43;43;11;110;110;99.70247;0;1.143686;-0.102797;35.23;0;35.23;21.878;1543.223;
35.9224981407682;14.5017433617519;14:32:20.51;6/29/2017;10;1.939;110.07;2.27258492511768;0.87;107.4;107.3;-0.06;-9.3;45.4;.00;31.83;31.84;97.1;156;639.0;16.08;-9.7;D;245.7692;0;85.511;3;2.09;201;70.51;14.50263657;35.9227552;0;0;1;N;4.297217;57;57;11;89;89;95.95672;0;1.072699;-7.894238E-02;35.19;0;35.19;21.935;1543.196;
35.9224936219419;14.5017538762994;14:32:21.52;6/29/2017;10;2.294;117.97;2.27258492511768;0.87;100.5;100.74;0.56;-0.72;45.4;.00;31.97;31.98;97.1;156;639.0;16.08;-9.7;D;245.7692;0;84.787;3;2.16;200;69.98;14.50263657;35.9227552;0;0;1;N;3.475147;58;58;11;92;92;91.17298;0;1.089043;-0.2213842;35.19;0;35.19;21.897;1543.159;
35.9224887974662;14.5017659147614;14:32:22.54;6/29/2017;10;2.316;113.56;2.27258492511768;0.87;95.4;95.89;-2.39;-1.13;45.4;.01;31.91;31.92;97.1;143;638.9;16.07;-8.9;D;268.0699;0;83.954;3;2.28;199;69.38;14.50263657;35.9227552;0;0;1;N;2.576164;43;43;11;86;86;85.51788;0;1.155621;-0.1883983;35.19;0;35.19;21.838;1543.102;
35.9224851236874;14.5017774923762;14:32:23.55;6/29/2017;10;2.102;112.58;2.27258492511768;0.87;98.8;99.12;4.66;6.97;45.4;.02;31.94;31.95;97.1;143;638.9;16.07;-8.9;D;268.0699;0;83.123;3;2.19;200;68.87;14.50263657;35.9227552;0;0;1;N;1.807176;80;80;11;65;65;80.37556;0;1.102266;-0.2231436;35.13;0;35.13;22.017;1543.155;
35.9224828584183;14.5017889137118;14:32:24.56;6/29/2017;10;1.866;110.25;2.27258492511768;0.87;87.7;88.59;1.14;0.19;45.4;.02;32.17;32.19;97.1;143;638.9;16.07;-8.9;D;268.0699;0;82.254;3;2.01;204;68.45;14.50263657;35.9227552;0;0;1;N;1.146948;64;64;11;84;84;75.78647;0;0.9667523;-0.1807973;35.19;0;35.19;22.375;1543.624;
35.9224813261094;14.5017995059597;14:32:25.58;6/29/2017;10;2.007;107.57;2.27258492511768;0.87;87.5;88.4;-0.7;-0.43;45.4;.00;32.20;32.21;97;152;638.8;16;-9.5;D;252.1579;0;81.429;3;1.97;208;68.09;14.50263657;35.9227552;0;0;1;N;0.6305748;53;53;11;73;73;72.12076;0;1.001169;-0.1669507;35.13;0;35.13;22.328;1543.457;
35.9224778616272;14.5018129737957;14:32:26.59;6/29/2017;10;2.376;105.46;2.27258492511768;0.87;81.8;83;4.32;1.65;45.4;.03;31.87;31.90;97;152;638.8;16;-9.5;D;252.1579;0;80.449;3;2.24;207;67.51;14.50263657;35.9227552;0;0;1;N;0.1796541;83;83;11;72;72;66.3083;0;1.11933;-0.2841151;35.13;0;35.13;22.162;1543.297;
35.9224762421715;14.501824343997;14:32:27.61;6/29/2017;10;2.078;103.14;2.27258492511768;0.87;77.7;79.12;-1.77;-6.5;45.4;.01;31.92;31.93;97;152;638.8;16;-9.5;D;252.1579;0;79.572;3;2.11;207;67.11;14.50263657;35.9227552;0;0;1;N;0.7570865;46;46;11;69;69;62.17723;0;1.062305;-0.2247175;35.13;0;35.13;22.336;1543.464;
35.9224769230548;14.5018380058957;14:32:28.62;6/29/2017;10;2.211;95.03;2.27258492511768;0.87;74;75.61;-2.42;2.32;45.4;.04;32.03;32.07;97;168;638.7;16;-10.5;D;228.1071;0;78.407;3;2.2;205;66.81;14.50263657;35.9227552;0;0;1;N;1.164781;43;43;11;73;73;59.29274;0;1.11246;-0.2111816;35.13;0;35.13;21.621;1542.775;
35.922477385929;14.5018495475776;14:32:29.63;6/29/2017;10;2.125;91.6;2.27258492511768;0.87;70.5;72.29;1.32;5.36;45.4;.04;31.96;32.00;97;168;638.7;16;-10.5;D;228.1071;0;77.431;3;2.13;204;66.54;14.50263657;35.9227552;0;0;1;N;1.515487;62;62;11;72;72;56.84515;0;1.079206;-0.1834443;35.11;0;35.13;21.434;1542.593;
35.9224804348773;14.501858897661;14:32:30.65;6/29/2017;9;1.68;91.6;2.27258492511768;0.97;62.7;64.88;2.7;7.48;45.5;.01;31.82;31.83;97;161;638.6;16.1;-10;D;237.9876;0;76.522;3;2.02;202;66.52;14.50263657;35.9227552;0;0;1;N;1.549182;76;76;11;99;99;56.61194;0;1.010329;-0.1685784;35.06;0;35.06;21.771;1542.778;
35.9224822549204;14.5018704751083;14:32:31.66;6/29/2017;10;2.108;91.6;2.27258492511768;0.87;61.8;64.03;-2.15;-1.01;45.5;.00;32.03;32.04;97;161;638.6;16.1;-10;D;237.9876;0;75.483;3;2.11;201;66.35;14.50263657;35.9227552;0;0;1;N;1.754864;44;44;11;96;96;55.19681;0;1.066531;-0.2023634;35.06;0;35.06;21.557;1542.569;
35.9224867832399;14.5018826472231;14:32:32.68;6/29/2017;10;2.041;86.93;2.27258492511768;0.87;53;55.65;-0.11;2.97;45.5;.01;32.37;32.38;97;161;638.6;16.1;-10;D;237.9876;0;74.275;3;2.05;200;66.36;14.50263657;35.9227552;0;0;1;N;1.729596;56;56;11;121;121;55.36977;0;1.041603;-0.1640847;35.06;0;35.06;21.249;1542.271;
35.922492;14.5018936666667;14:32:33.69;6/29/2017;10;1.926;61.56;2.27258492511768;0.87;58.7;61.08;-0.1;5.81;45.5;.00;32.23;32.24;97;161;638.6;16.1;-10;D;237.9876;0;73.118;3;2.02;200;66.47;14.50263657;35.9227552;0;0;1;N;1.541974;54;54;11;106;106;56.66163;0;1.026015;-0.17536;35;0;35;20.909;1541.82;
35.9224953333333;14.5019045;14:32:34.72;6/29/2017;10;2.021;63.09;2.27258492511768;0.87;55.2;57.75;0.3;7.1;45.4;.00;32.34;32.34;97;161;638.6;16.1;-10;D;237.9876;0;72.124;3;1.96;199;66.51;14.50263657;35.9227552;0;0;1;N;1.487238;59;59;11;120;120;57.04074;0;0.9942622;-0.1359375;35;0;35;21.288;1542.187;
35.922498;14.501913;14:32:35.75;6/29/2017;10;1.886;65.31;2.27258492511768;0.87;55.2;57.75;-1.97;-2.62;45.4;.00;32.23;32.23;97;161;638.6;16.1;-10;D;237.9876;0;71.069;3;1.91;199;66.5;14.50263657;35.9227552;0;0;1;N;1.493677;45;45;11;121;121;56.99607;0;0.9837484;-1.518937E-02;35;0;35;21.088;1541.993;
35.9225018333333;14.5019218333333;14:32:36.76;6/29/2017;10;1.652;65.48;2.27258492511768;0.87;50.9;53.65;-0.19;-2.4;45.5;.00;32.30;32.30;97;122;638.4;16.05;-7.6;D;313.9672;0;70.327;3;1.86;204;66.48;14.50263657;35.9227552;0;0;1;N;1.496756;53;53;11;144;144;56.97471;0;0.9474157;-0.115445;35;0;35;20.864;1541.776;
35.9225069304591;14.5019326839344;14:32:37.79;6/29/2017;10;2.012;62.96;2.27258492511768;0.87;59.9;62.22;1.8;1.32;45.4;.02;32.38;32.40;97;122;638.4;16.05;-7.6;D;313.9672;0;69.243;3;2.04;208;66.56;14.50263657;35.9227552;0;0;1;N;1.514369;68;68;11;109;109;57.88114;0;1.040851;-0.1164276;35;0;35;20.842;1541.755;
35.9225118685041;14.5019418369456;14:32:38.81;6/29/2017;10;1.788;62.39;2.27258492511768;0.87;53.4;56.03;0.32;7.88;45.4;.01;32.50;32.51;97;122;638.4;16.05;-7.6;D;313.9672;0;68.267;3;1.88;208;66.7;14.50263657;35.9227552;0;0;1;N;1.290475;58;58;11;139;139;59.11725;0;0.9670368;-6.682953E-02;34.98;0;34.98;20.866;1541.738;
35.9225160760398;14.501952509694;14:32:39.82;6/29/2017;10;2.327;63.44;2.27258492511768;0.87;57.8;60.22;-2.07;-0.1;45.4;.00;32.35;32.35;97;122;638.4;16.05;-7.6;D;313.9672;0;67.198;3;1.93;208;66.74;14.50263657;35.9227552;0;0;1;N;1.013678;43;43;11;134;134;59.55812;0;0.9913877;6.034713E-04;34.94;0;34.94;20.841;1541.632;
35.9225201952811;14.5019627902918;14:32:40.84;6/29/2017;10;1.927;63.44;2.27258492511768;0.87;57.8;60.22;1.86;3.07;45.4;.03;32.52;32.55;97;122;638.4;16.05;-7.6;D;313.9672;0;66.165;3;2.03;208;66.79;14.50263657;35.9227552;0;0;1;N;0.9923764;69;69;11;135;135;60.11657;0;1.031315;-6.438301E-02;34.94;0;34.94;20.878;1541.671;
35.9225252854812;14.5019728973536;14:32:41.85;6/29/2017;10;2.113;61.95;2.27258492511768;0.87;57.1;59.56;-2.27;6.2;45.4;.01;32.83;32.84;97;122;638.4;16.05;-7.6;D;313.9672;0;65.104;3;1.93;208;66.93;14.50263657;35.9227552;0;0;1;N;0.9033524;43;43;11;137;137;61.3634;0;0.9927543;-4.957767E-02;34.94;0;34.94;21.048;1541.834;
35.9225286562493;14.501983976529;14:32:42.86;6/29/2017;10;2.114;60.48;2.27258492511768;0.87;57.2;59.65;0.77;-4.98;45.4;.00;32.48;32.48;97;183;638.2;16.05;-11.4;D;209.2459;0;64.037;3;2.08;208;66.89;14.50263657;35.9227552;0;0;1;N;0.8137591;62;62;11;136;136;61.11799;0;1.068663;-4.816614E-02;34.94;0;34.94;20.876;1541.666;
35.9225340024023;14.5019963037601;14:32:43.88;6/29/2017;10;2.004;67.66;2.27258492511768;0.87;57.9;60.32;-1.83;7.98;45.4;.00;32.68;32.68;97;183;638.2;16.05;-11.4;D;209.2459;0;62.781;3;2.02;206;66.99;14.50263657;35.9227552;0;0;1;N;0.7730605;44;44;11;136;136;62.06313;0;1.036628;-9.197099E-02;34.94;0;34.94;20.787;1541.58;
35.9225402385183;14.5020067400554;14:32:44.89;6/29/2017;10;1.779;62.4;2.27258492511768;0.87;56.1;58.61;-2.31;-9.2;45.4;.00;32.61;32.62;97;183;638.2;16.05;-11.4;D;209.2459;0;61.645;3;1.93;204;67.24;14.50263657;35.9227552;0;0;1;N;0.4995915;43;43;11;148;148;64.01427;0;0.9933179;-4.920578E-02;34.88;0;34.88;20.917;1541.585;
35.922543299206;14.5020167538112;14:32:45.91;6/29/2017;10;2.146;65.35;2.27258492511768;0.87;64.6;66.69;-1.42;-2.18;45.5;.00;33.13;33.14;96.9;137;638.1;16.12;-8.5;D;279.4598;0;60.680;3;1.92;208;67.2;14.50263657;35.9227552;0;0;1;N;0.507965;47;47;11;115;115;63.95439;0;0.983215;-8.746459E-02;34.88;0;34.88;20.913;1541.581;
35.9225467418918;14.5020270919167;14:32:46.92;6/29/2017;10;1.896;69.92;2.27258492511768;0.87;61.4;63.65;2.4;0.68;45.5;.01;32.90;32.90;96.9;137;638.1;16.12;-8.5;D;279.4598;0;59.672;3;1.94;208;67.19;14.50263657;35.9227552;0;0;1;N;0.5149577;71;71;11;121;121;63.90435;0;0.9981817;-6.926135E-02;34.88;0;34.88;20.94;1541.607;
35.9225497198385;14.5020375538948;14:32:47.96;6/29/2017;10;2.034;69.25;2.27258492511768;0.87;60;62.32;-3.33;-0.84;45.4;.00;32.99;33.00;96.9;173;637.9;16.02;-10.8;D;221.237;0;58.673;3;1.84;208;67.13;14.50263657;35.9227552;0;0;1;N;0.5723904;43;43;11;136;136;63.4938;0;0.9750913;-8.693364E-02;34.81;0;34.86;21.392;1542.005;
35.9225529486848;14.5020483392667;14:32:48.98;6/29/2017;10;1.997;69.09;2.27258492511768;0.87;60.2;62.51;2.32;-6.19;45.5;.01;33.02;33.03;96.9;173;637.9;16.02;-10.8;D;221.237;0;57.637;3;1.99;206;67.09;14.50263657;35.9227552;0;0;1;N;0.6029908;71;71;11;134;134;63.27526;0;1.017495;-0.1270775;34.81;0;34.81;21.978;1542.474;
35.9225571182507;14.5020592042743;14:32:49.99;6/29/2017;10;2.018;68.65;2.27258492511768;0.87;59.8;62.13;0.61;5.49;45.5;.02;33.10;33.11;96.9;173;637.9;16.02;-10.8;D;221.237;0;56.554;3;2.08;205;67.13;14.50263657;35.9227552;0;0;1;N;0.557583;61;61;11;136;136;63.59958;0;1.066829;-4.337758E-02;34.81;0;34.81;21.935;1542.433;
35.9225617427593;14.5020690785573;14:32:51.02;6/29/2017;10;1.999;64.91;2.27258492511768;0.87;61.5;63.74;-2.49;-0.69;45.5;.01;33.10;33.11;96.9;164;637.8;16.08;-10.2;D;233.3415;0;55.533;3;2;204;67.26;14.50263657;35.9227552;0;0;1;N;0.4153323;43;43;11;135;135;64.61742;0;1.027796;-6.529501E-02;34.81;0;34.81;21.933;1542.431;
35.9225656691008;14.502078208816;14:32:52.04;6/29/2017;10;1.962;61.02;2.27258492511768;0.87;66;68.02;0.38;-10.2;45.4;.00;32.93;32.93;96.9;164;637.8;16.08;-10.2;D;233.3415;0;54.605;3;1.89;203;67.35;14.50263657;35.9227552;0;0;1;N;0.308426;59;59;11;114;114;65.38366;0;0.967003;-0.1223712;34.81;0;34.81;22.234;1542.723;
35.9225683342119;14.5020883926925;14:32:53.07;6/29/2017;10;2.069;69.11;2.27258492511768;0.87;66.7;68.68;-2.67;0.82;45.4;.02;33.78;33.80;96.9;164;637.8;16.08;-10.2;D;233.3415;0;53.643;3;1.98;202;67.26;14.50263657;35.9227552;0;0;1;N;0.3854345;46;46;11;114;114;64.8316;0;1.003283;-0.1673193;34.75;0;34.75;22.368;1542.734;
35.9225717588224;14.5020960886685;14:32:54.08;6/29/2017;10;1.508;65.52;2.27258492511768;0.87;61.6;63.84;-3.26;-2.68;45.5;.02;33.22;33.24;96.9;138;637.7;16.05;-8.6;D;277.2609;0;52.856;3;1.76;201;67.35;14.50263657;35.9227552;0;0;1;N;0.3079822;43;43;11;138;138;65.38681;0;0.8995187;-0.1056865;34.75;0;34.75;22.111;1542.484;
35.9225746979507;14.5021067363845;14:32:55.09;6/29/2017;10;2.068;69.58;2.27258492511768;0.87;66.5;68.49;4.95;-0.4;45.4;.02;33.09;33.12;96.9;138;637.7;16.05;-8.6;D;277.2609;0;51.843;3;1.91;205;67.27;14.50263657;35.9227552;0;0;1;N;0.3606246;86;86;11;111;111;65.00937;0;0.980184;-9.820946E-02;34.75;0;34.75;22.398;1542.763;
35.9225768389142;14.5021180999813;14:32:56.11;6/29/2017;10;1.957;74.61;2.27258492511768;0.87;61.8;64.03;-2.43;0.1;45.5;.02;33.33;33.36;96.9;138;637.7;16.05;-8.6;D;277.2609;0;50.806;3;2.01;208;67.07;14.50263657;35.9227552;0;0;1;N;0.534723;48;48;11;133;133;63.76298;0;1.02617;-0.1444526;34.73;0;34.73;22.619;1542.938;
35.9225789097916;14.5021283443297;14:32:57.12;6/29/2017;10;1.759;74.29;2.27258492511768;0.87;63;65.17;0.27;-4.45;45.5;.02;33.13;33.15;96.9;154;637.6;16.04;-9.6;D;248.4156;0;49.865;3;1.88;207;66.9;14.50263657;35.9227552;0;0;1;N;0.6789154;53;53;11;116;116;62.73352;0;0.9655574;-8.825926E-02;34.69;0;34.69;22.604;1542.843;
35.9225814446958;14.5021396858131;14:32:58.14;6/29/2017;10;2.038;73.51;2.27258492511768;0.87;59;61.36;4.61;-6.13;45.5;.04;33.12;33.16;96.9;154;637.6;16.04;-9.6;D;248.4156;0;48.813;3;2.02;206;66.74;14.50263657;35.9227552;0;0;1;N;0.8068406;91;91;11;121;121;61.82293;0;1.030087;-0.1390469;34.69;0;34.69;22.904;1543.137;
35.922584406461;14.5021509190551;14:32:59.16;6/29/2017;10;2.13;74.72;2.27258492511768;0.87;65.9;67.92;-3.98;-4.13;45.5;.01;33.20;33.22;96.9;154;637.6;16.04;-9.6;D;248.4156;0;47.752;3;1.98;206;66.62;14.50263657;35.9227552;0;0;1;N;0.870981;43;43;11;102;102;61.36745;0;1.004723;-0.166113;34.69;0;34.69;22.781;1543.014;
35.9225875080725;14.5021603421264;14:33:00.18;6/29/2017;10;1.781;73.39;2.27258492511768;0.87;58.2;60.6;-2.56;2.77;45.5;.06;33.30;33.36;96.9;151;637.5;16.06;-9.4;D;253.3113;0;46.835;3;1.92;205;66.59;14.50263657;35.9227552;0;0;1;N;0.9031485;43;43;11;134;134;61.13934;0;0.9542019;-8.755575E-02;34.69;0;34.69;22.77;1543.007;
35.9225914634116;14.5021697160519;14:33:01.19;6/29/2017;10;1.895;73.39;2.27258492511768;0.87;60.5;62.79;3.97;1.3;45.4;.05;33.90;33.95;96.9;151;637.5;16.06;-9.4;D;253.3113;0;45.884;3;2.01;205;66.67;14.50263657;35.9227552;0;0;1;N;0.805302;77;77;11;115;115;61.83387;0;1.028259;-0.1229423;34.69;0;34.69;22.753;1542.99;
35.9225957065267;14.5021805507053;14:33:02.21;6/29/2017;10;2.018;73.39;2.27258492511768;0.87;61;63.27;2.69;2.45;45.5;.03;33.58;33.61;96.8;167;637.4;16.06;-10.4;D;229.006;0;44.800;3;2.07;205;66.73;14.50263657;35.9227552;0;0;1;N;0.7374797;75;75;11;120;120;62.31635;0;1.050091;-0.1697832;34.63;0;34.67;22.81;1543.004;
35.9226014972609;14.502194068127;14:33:03.28;6/29/2017;10;2.174;71.47;2.27258492511768;0.87;59.4;61.74;-3.52;-0.54;45.5;.02;33.62;33.63;96.8;167;637.4;16.06;-10.4;D;229.006;0;43.426;3;2.08;202;66.88;14.50263657;35.9227552;0;0;1;N;0.6130647;43;43;11;134;134;63.20338;0;1.045114;-9.746365E-02;34.63;0;34.63;22.794;1542.906;
35.9226038503754;14.5022066616678;14:33:04.30;6/29/2017;10;2.004;72.37;2.27258492511768;0.87;57.5;59.94;-0.02;-1.51;45.4;.02;33.53;33.55;96.8;167;637.4;16.06;-10.4;D;229.006;0;42.278;3;2;200;66.6;14.50263657;35.9227552;0;0;1;N;0.8036951;54;54;11;137;137;61.84536;0;1.015506;-0.1534472;34.63;0;34.63;22.732;1542.846;
35.9226068981644;14.5022163133025;14:33:05.31;6/29/2017;10;1.98;65.99;2.27258492511768;0.87;59.3;61.65;-0.33;4.58;45.4;.02;33.39;33.41;96.8;136;637.3;16.19;-8.4;D;281.1618;0;41.345;3;1.99;200;66.55;14.50263657;35.9227552;0;0;1;N;0.8302884;59;59;11;121;121;61.65641;0;1.018027;-6.713738E-02;34.63;0;34.63;22.941;1543.05;
35.9226112257944;14.5022271780449;14:33:06.32;6/29/2017;10;1.963;67.01;2.27258492511768;0.87;63.4;65.55;-2.89;-4.87;45.4;.00;33.44;33.44;96.8;136;637.3;16.19;-8.4;D;281.1618;0;40.254;3;1.95;205;66.62;14.50263657;35.9227552;0;0;1;N;0.7405435;43;43;11;115;115;62.29464;0;0.995483;-0.1362773;34.63;0;34.63;22.871;1542.98;
35.9226167461416;14.5022386993694;14:33:07.34;6/29/2017;10;1.867;66.08;2.27258492511768;0.87;59.2;61.55;2.42;-3.62;45.4;.00;33.57;33.58;96.8;136;637.3;16.19;-8.4;D;281.1618;0;39.057;3;1.99;208;66.84;14.50263657;35.9227552;0;0;1;N;0.5794389;72;72;11;138;138;63.44361;0;1.018068;-0.1160941;34.56;0;34.56;23.09;1543.052;
35.9226200135067;14.5022498913079;14:33:08.35;6/29/2017;10;2.09;66.8;2.27258492511768;0.87;65.9;67.92;-2.98;4.48;45.4;.01;34.13;34.14;96.8;136;637.3;16.19;-8.4;D;281.1618;0;37.985;3;2.02;208;66.74;14.50263657;35.9227552;0;0;1;N;0.6174272;43;43;11;108;108;63.17235;0;1.036783;-9.489612E-02;34.56;0;34.56;22.956;1542.922;
35.9226227897957;14.5022594339545;14:33:09.37;6/29/2017;10;1.824;66.49;2.27258492511768;0.87;63.7;65.83;-1.75;-1.33;45.5;.01;33.78;33.78;96.8;136;637.3;16.19;-8.4;D;281.1618;0;37.073;3;1.94;208;66.65;14.50263657;35.9227552;0;0;1;N;0.6573953;49;49;11;115;115;62.88718;0;0.9867416;-0.1443384;34.56;0;34.56;22.982;1542.948;
35.9226259952042;14.5022720663477;14:33:10.38;6/29/2017;10;2.206;68.76;2.27258492511768;0.87;60.4;62.7;-0.35;1.92;45.5;.01;33.57;33.58;96.8;136;637.3;16.19;-8.4;D;281.1618;0;35.885;3;2.08;208;66.45;14.50263657;35.9227552;0;0;1;N;0.7648818;55;55;11;120;120;62.12152;0;1.054913;-0.1658558;34.56;0;34.56;22.904;1542.872;
35.9226293516549;14.5022846531464;14:33:11.39;6/29/2017;10;1.922;67.98;2.27258492511768;0.87;61.7;63.93;-2.64;-0.7;45.5;.01;34.06;34.06;96.8;146;637.1;16.04;-9.1;D;261.8219;0;34.695;3;1.97;208;66.27;14.50263657;35.9227552;0;0;1;N;0.8614629;43;43;11;115;115;61.43525;0;1.011461;-5.943253E-02;34.54;0;34.54;22.961;1542.887;
35.9226330574638;14.5022945800617;14:33:12.43;6/29/2017;10;2.097;70.71;2.27258492511768;0.87;60.2;62.51;-0.88;-5.37;45.4;.00;33.87;33.88;96.8;146;637.1;16.04;-9.1;D;261.8219;0;33.710;3;2.02;208;66.29;14.50263657;35.9227552;0;0;1;N;0.8161524;47;47;11;121;121;61.75705;0;1.030576;-0.1347219;34.5;0;34.5;22.995;1542.839;
35.9226349801766;14.5023082570002;14:33:13.45;6/29/2017;10;2.361;73.3;2.27258492511768;0.87;64.6;66.69;2.68;4.36;45.4;.01;33.90;33.91;96.8;146;637.1;16.04;-9.1;D;261.8219;0;32.495;3;2.2;208;65.76;14.50263657;35.9227552;0;0;1;N;1.075549;73;73;11;102;102;59.9208;0;1.122403;-0.1485786;34.5;0;34.5;23.172;1543.012;
35.9226374733013;14.5023202228395;14:33:14.47;6/29/2017;10;2.121;72.76;2.27258492511768;0.87;60;62.32;-3;-1;45.4;.01;33.86;33.87;96.8;164;637.0;16.08;-10.2;D;233.0488;0;31.397;3;2.18;207;65.41;14.50263657;35.9227552;0;0;1;N;1.240226;43;43;11;107;107;58.76318;0;1.114307;-0.1274635;34.5;0;34.5;23.11;1542.951;
35.9226407888823;14.5023297902475;14:33:15.48;6/29/2017;10;1.755;71.4;2.27258492511768;0.87;58.9;61.27;-1.28;-11.7;45.4;.00;33.79;33.79;96.8;164;637.0;16.08;-10.2;D;233.0488;0;30.459;3;1.96;205;65.37;14.50263657;35.9227552;0;0;1;N;1.232736;49;49;11;115;115;58.81573;0;1.002025;-0.116917;34.44;0;34.44;23.242;1542.959;
35.9226440288522;14.5023395638633;14:33:16.50;6/29/2017;10;1.975;69.33;2.27258492511768;0.87;56.8;59.27;0.51;2.45;45.4;.01;33.74;33.75;96.8;164;637.0;16.08;-10.2;D;233.0488;0;29.507;3;2;205;65.29;14.50263657;35.9227552;0;0;1;N;1.237483;61;61;11;114;114;58.7825;0;1.025442;-9.577932E-02;34.44;0;34.44;23.464;1543.176;
35.9226472832696;14.5023501106817;14:33:17.51;6/29/2017;10;2.141;67.52;2.27258492511768;0.87;60.4;62.7;-2.36;-6.39;45.4;.00;34.15;34.15;96.8;135;636.9;16.07;-8.4;D;283.0667;0;28.492;3;2.07;208;65.15;14.50263657;35.9227552;0;0;1;N;1.258287;43;43;11;110;110;58.63676;0;1.058803;-0.1320503;34.44;0;34.44;23.341;1543.055;
35.9226520852162;14.5023602194093;14:33:18.52;6/29/2017;10;1.916;63.3;2.27258492511768;0.87;54.9;57.46;-1.25;1.15;45.4;.00;34.46;34.46;96.8;135;636.9;16.07;-8.4;D;283.0667;0;27.440;3;2.01;208;65.36;14.50263657;35.9227552;0;0;1;N;1.123813;51;51;11;139;139;59.58096;0;1.028813;-0.1181047;34.44;0;34.44;23.414;1543.126;
35.9226547999546;14.5023717765494;14:33:19.54;6/29/2017;10;2.112;70.29;2.27258492511768;0.87;60.7;62.98;2.02;0.66;45.4;.01;34.58;34.59;96.8;161;636.8;16.1;-10;D;237.3168;0;26.367;3;2.01;208;65.01;14.50263657;35.9227552;0;0;1;N;1.218716;68;68;11;106;106;58.91419;0;1.020062;-0.1653189;34.44;0;34.44;23.215;1542.932;
35.9226604650028;14.5023819004466;14:33:20.55;6/29/2017;10;2.038;62.05;2.27258492511768;0.87;48.6;51.46;-4.11;-4.15;45.4;.01;34.33;34.34;96.8;161;636.8;16.1;-10;D;237.3168;0;25.274;3;1.99;207;65.42;14.50263657;35.9227552;0;0;1;N;1.025985;43;43;11;158;158;60.27077;0;0.9973233;-8.212638E-02;34.38;0;34.38;23.312;1542.907;
35.922665144758;14.5023918417288;14:33:21.57;6/29/2017;10;2.026;60.99;2.27258492511768;0.87;61.8;64.03;2.84;-0.12;45.4;.00;34.21;34.22;96.8;161;636.8;16.1;-10;D;237.3168;0;24.242;3;2.07;205;65.66;14.50263657;35.9227552;0;0;1;N;0.8538374;68;68;11;114;114;61.48974;0;1.060758;-0.1145219;34.38;0;34.38;23.27;1542.865;
35.922668786419;14.5024041201113;14:33:22.58;6/29/2017;10;2.141;64.19;2.27258492511768;0.87;58;60.41;1.07;2.26;45.4;.02;34.35;34.37;96.8;125;636.7;16.03;-7.8;D;305.616;0;23.066;3;2.14;204;65.44;14.50263657;35.9227552;0;0;1;N;0.9015908;63;63;11;134;134;61.15105;0;1.049163;-0.10739;34.38;0;34.38;23.197;1542.795;
35.922672470181;14.5024122928299;14:33:23.59;6/29/2017;10;1.823;66.91;2.27258492511768;0.87;51.9;54.61;-2.14;-5.16;45.4;.00;34.26;34.26;96.8;125;636.7;16.03;-7.8;D;305.616;0;22.226;3;1.91;208;65.61;14.50263657;35.9227552;0;0;1;N;0.8260555;44;44;11;154;154;61.68712;0;0.97825;-8.286111E-02;34.36;0;34.36;23.177;1542.733;
35.9226764145486;14.5024219553209;14:33:24.61;6/29/2017;10;1.987;63.16;2.27258492511768;0.87;56.9;59.37;2;3.61;45.4;.01;34.43;34.44;96.8;125;636.7;16.03;-7.8;D;305.616;0;21.251;3;1.97;208;65.71;14.50263657;35.9227552;0;0;1;N;0.74077;69;69;11;146;146;62.29366;0;1.02713;-0.1094394;34.31;0;34.31;23.276;1542.729;
35.9226801799916;14.5024329749749;14:33:25.62;6/29/2017;10;1.992;63.77;2.27258492511768;0.87;51.9;54.61;-2.27;-1.41;45.4;.01;34.44;34.46;96.8;125;636.7;16.03;-7.8;D;305.616;0;20.172;3;2.02;208;65.63;14.50263657;35.9227552;0;0;1;N;0.7395192;43;43;11;155;155;62.30262;0;1.029854;-0.1206753;34.31;0;34.31;23.228;1542.684;
35.9226850758104;14.5024416339031;14:33:26.64;6/29/2017;10;2.01;59.05;2.27258492511768;0.87;58.8;61.17;1.17;-5.7;45.4;.00;34.23;34.23;96.8;125;636.7;16.03;-7.8;D;305.616;0;19.237;3;1.98;208;66.14;14.50263657;35.9227552;0;0;1;N;0.5234208;61;61;11;141;141;63.84469;0;1.032284;-0.1109676;34.31;0;34.31;23.258;1542.711;
35.9226892497962;14.5024544288995;14:33:27.65;6/29/2017;10;2.145;61.61;2.27258492511768;0.87;59.8;62.13;2.28;4.21;45.4;.02;34.40;34.42;96.8;125;636.7;16.03;-7.8;D;305.616;0;17.994;3;2.12;208;66;14.50263657;35.9227552;0;0;1;N;0.5260354;75;75;11;136;136;63.82606;0;1.084549;-0.1215741;34.31;0;34.31;23.231;1542.686;
35.9226932475905;14.5024643998735;14:33:28.66;6/29/2017;10;2.184;61.95;2.27258492511768;0.87;56.7;59.18;-2.97;-3.36;45.4;.02;34.28;34.30;96.8;170;636.5;16.04;-10.6;D;224.6471;0;16.991;3;2.09;206;66.14;14.50263657;35.9227552;0;0;1;N;0.4727625;43;43;11;144;144;64.2072;0;1.075452;-4.995293E-02;34.31;0;34.31;23.193;1542.649;
35.9226973642465;14.5024745992232;14:33:29.68;6/29/2017;10;1.779;64.23;2.27258492511768;0.87;58.1;60.51;-2.35;0.06;45.5;.02;34.24;34.26;96.8;170;636.5;16.04;-10.6;D;224.6471;0;15.965;3;1.93;206;66.3;14.50263657;35.9227552;0;0;1;N;0.3895452;43;43;11;147;147;64.8032;0;0.9872916;-0.1149569;34.29;0;34.31;23.071;1542.53;
35.9226999111598;14.5024858509912;14:33:30.69;6/29/2017;10;2.12;65.41;2.27258492511768;0.87;60.4;62.7;-0.02;-1.07;45.4;.03;34.26;34.30;96.8;170;636.5;16.04;-10.6;D;224.6471;0;14.922;3;2.12;205;65.72;14.50263657;35.9227552;0;0;1;N;0.5120839;57;57;11;136;136;63.92601;0;1.086667;-8.899323E-02;34.25;0;34.25;23.125;1542.461;
35.9227043333333;14.5024971666667;14:33:31.71;6/29/2017;10;1.968;64.2;2.27258492511768;0.87;61.1;63.36;-0.52;-1.07;45.4;.03;34.29;34.33;96.8;152;636.3;16;-9.5;D;251.1711;0;13.720;3;2.14;204;65.49;14.50263657;35.9227552;0;0;1;N;0.5214437;54;54;11;122;122;63.85914;0;1.094517;-0.1204067;34.25;0;34.25;23.141;1542.479;
35.9227083333333;14.502508;14:33:32.72;6/29/2017;10;2.111;66.11;2.27258492511768;0.87;57.3;59.75;-1.92;7.72;45.4;.00;34.18;34.18;96.8;152;636.3;16;-9.5;D;251.1711;0;12.770;3;2.07;204;65.69;14.50263657;35.9227552;0;0;1;N;0.4483692;45;45;11;144;144;64.45968;0;1.060358;-0.1096965;34.25;0;34.25;23.199;1542.532;
35.9227128333333;14.5025178333333;14:33:33.73;6/29/2017;10;1.959;61.94;2.27258492511768;0.87;65.6;67.64;-2.12;-9;45.4;.00;34.16;34.17;96.8;152;636.3;16;-9.5;D;251.1711;0;11.640;3;2.16;204;65.43;14.50263657;35.9227552;0;0;1;N;0.4449025;43;43;11;108;108;64.4855;0;1.106016;-8.921128E-02;34.19;0;34.19;23.23;1542.44;
35.922715;14.5025285;14:33:34.75;6/29/2017;10;1.996;68.31;2.27258492511768;0.87;64.3;66.4;-1.46;2.59;45.4;.00;35.03;35.03;96.8;132;636.2;16.1;-8.2;D;289.1818;0;10.584;3;2.01;204;65.96;14.50263657;35.9227552;0;0;1;N;0.3135982;49;49;11;118;118;65.42743;0;1.034044;-6.233947E-02;34.19;0;34.19;23.288;1542.497;
35.9227165;14.5025408333333;14:33:35.76;6/29/2017;10;2.169;72.62;2.27258492511768;0.87;69.1;70.96;-4.42;-1.53;45.4;.00;34.94;34.94;96.8;132;636.2;16.1;-8.2;D;289.1818;0;9.691;3;1.99;207;64.72;14.50263657;35.9227552;0;0;1;N;0.4768754;43;43;11;103;103;64.25836;0;1.013202;-0.1548663;34.19;0;34.19;23.251;1542.461;
35.9227189060385;14.502553411218;14:33:36.78;6/29/2017;10;2.074;78.65;2.27258492511768;0.87;69.3;71.15;0.54;-1.36;45.4;.01;34.85;34.86;96.8;115;636.1;15.97;-7.2;D;331.8782;0;8.517;3;2.06;208;61.78;14.50263657;35.9227552;0;0;1;N;0.8811277;59;59;11;93;93;61.54089;0;1.053944;-0.1023372;34.19;0;34.19;23.278;1542.488;
35.922718970365;14.5025656885286;14:33:37.79;6/29/2017;10;2.005;80.31;2.27258492511768;0.87;66.1;68.11;3.53;9.1;45.4;.00;36.20;36.21;96.8;115;636.1;15.97;-7.2;D;331.8782;0;7.555;3;1.97;208;57.85;14.50263657;35.9227552;0;0;1;N;1.002866;78;78;11;93;93;58.58089;0;1.008433;-0.1146152;34.19;0;34.19;23.251;1542.461;
35.9227231642879;14.5025771488052;14:33:38.80;6/29/2017;10;2.392;73.09;2.27258492511768;0.87;66.3;68.3;-1.91;-5.23;45.4;.01;34.84;34.86;96.8;115;636.1;15.97;-7.2;D;331.8782;0;6.434;3;2.16;208;56.46;14.50263657;35.9227552;0;0;1;N;1.416479;46;46;11;89;89;58.89473;0;1.10608;-8.973102E-02;34.13;0;34.13;23.387;1542.473;
35.922725687369;14.5025871055727;14:33:39.82;6/29/2017;9;1.606;73.09;2.27258492511768;0.92;61.4;63.65;-5.42;10;45.3;.06;34.83;34.89;96.8;157;636.0;16.02;-9.8;D;243.0573;0;5.536;3;2.16;208;53.74;14.50263657;35.9227552;0;0;1;N;1.284272;43;43;11;103;103;58.23275;0;1.105949;-0.1281782;34.13;0;34.13;23.251;1542.344;
35.9227228291682;14.5025902734579;14:33:40.83;6/29/2017;9;0.793;73.09;2.27258492511768;0.92;62.2;64.41;1.82;6.2;45.3;.08;34.50;34.58;96.8;157;636.0;16.02;-9.8;D;243.0573;0;5.510;3;2.15;207;49.32;14.50263657;35.9227552;0;0;1;N;1.366948;65;65;11;94;94;55.41491;0;1.096944;-0.1441861;34.13;0;34.13;23.129;1542.226;
35.9227253744251;14.5026001629798;14:33:41.85;6/29/2017;10;1.639;73.09;2.27258492511768;0.92;57;59.46;2.59;8.5;45.4;.04;34.71;34.76;96.8;157;636.0;16.02;-9.8;D;243.0573;1;26.951;3;2.35;206;9.26;14.50264824;35.9229651;0;0;1;N;3.075255;73;73;11;5;5;17.25264;0;1.208362;-0.0615912;34.11;0;34.11;23.159;1542.212;
35.9227322373565;14.5026067804468;14:33:42.86;6/29/2017;10;1.651;73.09;2.27258492511768;0.87;45.7;48.69;3.42;3.43;45.4;.00;34.44;34.44;96.8;175;635.9;16.06;-10.9;D;218.0229;1;26.107;3;2.05;205;8.24;14.50264824;35.9229651;0;0;1;N;2.220225;78;78;11;14;14;15.53628;0;1.039047;-0.1780438;34.06;0;34.06;23.337;1542.281;
35.922743617822;14.5026187655499;14:33:43.88;6/29/2017;10;2.071;67.95;2.27258492511768;0.87;36.3;39.72;-0.09;3.62;45.3;.00;34.59;34.59;96.8;175;635.9;16.06;-10.9;D;218.0229;1;24.719;3;1.91;203;6.18;14.50264824;35.9229651;0;0;1;N;1.622743;55;55;11;33;33;11.91006;0;0.9754532;-0.1014615;34.06;0;34.06;23.468;1542.409;
35.9227533733491;14.5026273846421;14:33:44.89;6/29/2017;10;1.778;53.7;2.27258492511768;0.87;30.3;33.98;1.09;1.92;45.4;.01;34.57;34.58;96.8;175;635.9;16.06;-10.9;D;218.0229;1;23.568;3;1.88;201;4.58;14.50264824;35.9229651;0;0;1;N;1.045841;65;65;11;35;35;5.080782;0;0.9533455;-0.1719253;34.06;0;34.06;23.605;1542.544;
35.922762985073;14.5026392036174;14:33:45.90;6/29/2017;10;1.84;32.82;2.27258492511768;0.87;24.2;28.14;3.26;-2.34;45.3;.00;34.51;34.51;96.8;151;635.8;16.06;-9.4;D;252.6358;1;22.441;3;1.87;201;2.08;14.50264824;35.9229651;0;0;1;N;0.2455466;72;72;11;39;39;1.691389;0;0.9416493;-0.1894234;34.06;0;34.06;23.767;1542.703;
35.922772079757;14.5026452674169;14:33:46.92;6/29/2017;10;1.716;26.79;2.27258492511768;0.87;16.9;21.15;1.83;4.49;45.3;.02;34.65;34.67;96.8;151;635.8;16.06;-9.4;D;252.6358;1;21.419;3;1.74;201;0.72;14.50264824;35.9229651;0;0;1;N;0.6643066;68;68;11;52;52;357.8519;0;0.8955777;-4.019222E-02;34;0;34.04;23.7;1542.598;
35.9227783417579;14.5026409107621;14:33:47.95;6/29/2017;10;1.743;21.35;2.27258492511768;0.87;8;12.62;-2.17;5.11;45.3;.03;34.69;34.72;96.8;151;635.8;16.06;-9.4;D;252.6358;1;20.733;3;1.75;200;1.83;14.50264824;35.9229651;0;0;1;N;0.2550513;44;44;11;86;86;0.7598737;0;0.9008331;-2.809419E-02;34;0;34;23.659;1542.478;
35.9227860887546;14.5026430520815;14:33:48.98;6/29/2017;10;1.92;13.81;2.27258492511768;0.87;6.8;11.47;5.68;2.77;45.4;.03;34.52;34.54;96.8;151;635.7;16.06;-9.4;D;252.596;1;19.868;3;1.74;200;1.35;14.50264824;35.9229651;0;0;1;N;0.4095262;91;91;11;91;91;359.6603;0;0.8917598;-4.513831E-02;34;0;34;23.69;1542.506;
35.9227946940838;14.5026445371282;14:33:49.99;6/29/2017;10;2.026;1.15;2.27258492511768;0.87;358.6;3.6;-0.75;-0.38;45.3;.05;34.73;34.77;96.8;151;635.7;16.06;-9.4;D;252.596;1;18.911;3;1.91;199;1.01;14.50264824;35.9229651;0;0;1;N;0.5145162;53;53;11;108;108;358.9142;0;0.9802023;-2.961777E-02;34;0;34;23.671;1542.49;
35.9228040176013;14.5026430824661;14:33:51.00;6/29/2017;10;1.623;359.98;2.27258492511768;0.87;355.2;0.34;3.79;2.16;45.3;.01;35.00;35.01;96.8;151;635.7;16.06;-9.4;D;252.596;1;17.879;3;1.77;199;1.49;14.50264824;35.9229651;0;0;1;N;0.3478542;80;80;11;121;121;9.908808E-02;0;0.9104514;0.0133461;34;0;34;23.706;1542.521;
35.9228134980235;14.5026421887607;14:33:52.02;6/29/2017;10;1.96;353.37;2.27258492511768;0.87;353.5;358.7;0.92;-3.12;45.2;.05;34.70;34.75;96.8;144;635.6;16;-9;D;264.8333;1;16.830;3;1.92;204;1.86;14.50264824;35.9229651;0;0;1;N;0.2218204;66;66;11;138;138;0.9966164;0;0.9884312;-7.050409E-03;33.94;0;33.94;24.135;1542.823;
35.9228227782733;14.5026407332686;14:33:53.03;6/29/2017;10;1.966;353.41;2.27258492511768;0.87;355;0.14;-4.58;8.4;45.3;.04;34.73;34.77;96.8;144;635.6;16;-9;D;264.8333;1;15.806;3;1.81;208;2.46;14.50264824;35.9229651;0;0;1;N;5.496239E-02;43;43;11;138;138;2.186007;0;0.9284269;0.0915717;33.94;0;33.94;23.854;1542.548;
35.922832426855;14.5026397749942;14:33:54.05;6/29/2017;8;2.057;353.41;2.27258492511768;1.04;350.9;356.2;9.9;3.21;45.3;.05;34.71;34.76;96.8;165;635.5;16.02;-10.3;D;231.0909;1;14.741;3;2.08;208;2.97;14.50264824;35.9229651;0;0;1;N;7.693765E-02;111;111;11;150;150;3.126515;0;1.064439;9.266014E-02;33.94;0;33.94;23.892;1542.582;
35.9228443312668;14.5026374110173;14:33:55.06;6/29/2017;10;2.28;353.41;2.27258492511768;0.92;350;355.34;-2.2;-4.22;45.3;.06;34.97;35.03;96.8;165;635.5;16.02;-10.3;D;231.0909;1;13.436;3;2.19;207;4.17;14.50264824;35.9229651;0;0;1;N;0.3486684;44;44;11;161;161;5.062624;0;1.124157;6.122743E-02;33.94;0;33.94;24.156;1542.846;
35.9228513511028;14.5026367936272;14:33:56.07;6/29/2017;10;1.908;352.55;2.27258492511768;0.87;2.5;7.35;-9.4;-12.8;45.2;.05;35.16;35.21;96.8;165;635.5;16.02;-10.3;D;231.0909;1;12.664;3;1.9;205;4.68;14.50264824;35.9229651;0;0;1;N;0.4613791;43;43;11;118;118;5.871003;0;0.9718267;8.103144E-02;33.94;0;33.94;23.315;1542.019;
35.9228605002475;14.502634606303;14:33:57.09;6/29/2017;10;2.136;352.55;2.27258492511768;1.04;3.6;8.4;4.7;-0.26;45.3;.10;35.08;35.18;96.8;95;635.3;16.1;-5.9;D;401.2421;1;11.671;3;1.92;205;6.05;14.50264824;35.9229651;0;0;1;N;0.7011901;81;81;11;117;117;7.572379;0;1.004686;0.1527108;33.88;0;33.88;23.67;1542.249;
35.9228691154046;14.5026258899424;14:33:58.10;6/29/2017;10;2.439;352.55;2.27258492511768;1.04;0.8;5.71;2.51;2.91;45.2;.08;35.16;35.25;96.8;95;635.3;16.1;-5.9;D;401.2421;1;10.840;3;1.97;208;10.72;14.50264824;35.9229651;0;0;1;N;1.534872;72;72;11;155;155;13.40023;0;1.011026;4.761828E-02;33.88;0;33.88;24.091;1542.663;
35.9228804998318;14.5026288624894;14:33:59.12;6/29/2017;10;2.027;352.55;2.27258492511768;0.87;7;11.66;5.08;3.37;45.2;.02;34.75;34.77;96.8;95;635.3;16.1;-5.9;D;401.2421;1;9.549;3;1.97;208;10.55;14.50264824;35.9229651;0;0;1;N;1.33586;90;90;11;139;139;12.02541;0;1.014162;2.524307E-02;33.88;0;33.88;20.329;1538.957;
35.9228935307934;14.5026313405332;14:34:00.13;6/29/2017;10;2.399;357.11;2.27258492511768;0.87;6.9;11.57;3.27;-1.6;45.2;.02;34.59;34.61;96.8;179;635.2;15.98;-11.2;D;212.9162;1;8.086;3;2.23;208;10.87;14.50264824;35.9229651;0;0;1;N;1.188129;77;77;11;120;120;10.9978;0;1.148449;-6.770895E-03;33.86;0;33.86;24.451;1542.969;
35.922903724581;14.5026311634943;14:34:01.14;6/29/2017;10;2.24;355.09;2.27258492511768;0.87;1.6;6.48;2.45;1.78;45.2;.01;34.83;34.83;96.8;179;635.2;15.98;-11.2;D;212.9162;1;6.982;3;2.23;206;12.75;14.50264824;35.9229651;0;0;1;N;1.227098;72;72;11;146;146;11.26997;0;1.139142;0.1164296;33.83;0;33.83;24.293;1542.752;
35.9229099909454;14.5026292926987;14:34:02.16;6/29/2017;10;1.985;2.46;2.27258492511768;0.87;1;5.91;-1.68;3.55;45.3;.01;34.71;34.71;96.8;179;635.2;15.98;-11.2;D;212.9162;1;6.349;3;2.13;205;15.62;14.50264824;35.9229651;0;0;1;N;1.432456;47;47;11;152;152;12.69561;0;1.09305;5.948049E-02;33.88;0;33.88;24.012;1542.577;
35.9229184057289;14.5026313961079;14:34:03.17;6/29/2017;10;2.077;0.06;2.27258492511768;0.87;8.5;13.1;-2.17;-11.7;45.2;.01;34.50;34.51;96.8;160;635.1;16;-10;D;238.1625;2;25.228;3;1.98;203;3.22;14.50264711;35.92314541;0;0;1;N;1.574564;44;44;11;101;101;6.102211;0;1.019202;1.244281E-02;33.81;0;33.81;23.73;1542.157;
35.9229270075189;14.5026320576784;14:34:04.19;6/29/2017;10;1.823;0.06;2.27258492511768;0.87;4.3;9.07;3.21;-9.6;45.2;.02;34.74;34.76;96.8;160;635.1;16;-10;D;238.1625;2;24.271;3;2.04;202;3.21;14.50264711;35.92314541;0;0;1;N;1.49344;75;75;11;109;109;6.255499;0;1.043969;0.106027;33.81;0;33.81;23.875;1542.302;
35.9229328871139;14.5026389230339;14:34:05.20;6/29/2017;10;1.815;3.88;2.27258492511768;0.87;358.5;3.51;-3.48;7.93;45.2;.01;35.65;35.66;96.8;160;635.1;16;-10;D;238.1625;2;23.593;3;1.74;201;1.79;14.50264711;35.92314541;0;0;1;N;0.8658866;43;43;11;122;122;3.749506;0;0.8975444;1.420254E-03;33.81;0;33.81;23.725;1542.152;
35.9229430081949;14.5026390084981;14:34:06.21;6/29/2017;10;2.037;354.25;2.27258492511768;0.87;5.8;10.51;1.56;-7.34;45.1;.00;35.87;35.87;96.8;146;635.0;16.04;-9.1;D;260.9589;2;22.470;3;1.83;200;1.86;14.50264711;35.92314541;0;0;1;N;0.8629159;63;63;11;105;105;4.193367;0;0.9420568;8.855924E-03;33.79;0;33.79;23.852;1542.236;
35.9229545301772;14.5026363639537;14:34:07.23;6/29/2017;10;1.933;352.69;2.27258492511768;0.87;352.1;357.36;5.44;-5.77;45.2;.05;35.46;35.51;96.8;146;635.0;16.04;-9.1;D;260.9589;2;21.202;3;2.05;205;2.62;14.50264711;35.92314541;0;0;1;N;1.062008;96;96;11;156;156;6.041029;0;1.00211;0.1529356;33.75;0;33.75;23.86;1542.165;
35.9229655906423;14.5026371097561;14:34:08.24;6/29/2017;10;2.061;1.06;2.27258492511768;0.87;353.7;358.9;-2.94;-0.3;45.2;.03;35.17;35.20;96.8;146;635.0;16.04;-9.1;D;260.9589;2;19.973;3;1.95;208;2.59;14.50264711;35.92314541;0;0;1;N;0.9942368;43;43;11;155;155;6.695233;0;0.9982136;6.905843E-02;33.75;0;33.75;23.982;1542.284;
35.9229739769877;14.5026376129512;14:34:09.26;6/29/2017;10;1.941;357.87;2.27258492511768;0.87;355.4;0.53;1.08;7.07;45.1;.03;34.96;34.99;96.8;149;634.9;16.02;-9.3;D;255.6644;2;19.041;3;1.85;208;2.58;14.50264711;35.92314541;0;0;1;N;0.9517431;63;63;11;150;150;6.464093;0;1.000122;3.796404E-02;33.75;0;33.75;23.534;1541.843;
35.9229846687992;14.5026359769617;14:34:10.27;6/29/2017;10;2.313;357.15;2.27258492511768;0.87;355.3;0.43;4.09;1.33;45.1;.02;34.85;34.88;96.8;149;634.9;16.02;-9.3;D;255.6644;2;17.864;3;2.1;208;3.22;14.50264711;35.92314541;0;0;1;N;1.087834;82;82;11;158;158;7.419133;0;1.0795;4.731238E-02;33.75;0;33.75;23.47;1541.78;
35.9229971294;14.5026373472515;14:34:11.29;6/29/2017;10;2.361;355.83;2.27258492511768;0.87;2.3;7.15;-3.86;-4.23;45.1;.02;34.87;34.89;96.8;149;634.9;16.02;-9.3;D;255.6644;2;16.476;3;2.2;208;3.07;14.50264711;35.92314541;0;0;1;N;0.9688473;43;43;11;120;120;6.584358;0;1.126533;0.1157891;33.69;0;33.73;23.394;1541.663;
35.9230052592621;14.5026385107857;14:34:12.30;6/29/2017;10;1.757;359.76;2.27258492511768;0.87;1.3;6.19;-0.97;2.28;45.2;.02;34.91;34.94;96.6;175;634.8;15.91;-11;D;217.6457;2;15.570;3;2.01;206;2.86;14.50264711;35.92314541;0;0;1;N;0.8622155;50;50;11;135;135;5.833775;0;1.032091;3.132668E-02;33.69;0;33.69;23.43;1541.617;
35.923014330221;14.5026403877682;14:34:13.31;6/29/2017;10;2.238;357.53;2.27258492511768;0.87;3.4;8.21;-0.56;-1.48;45.1;.02;34.89;34.91;96.6;175;634.8;15.91;-11;D;217.6457;2;14.557;3;2.02;205;2.39;14.50264711;35.92314541;0;0;1;N;0.6970986;55;55;11;103;103;4.667433;0;1.088878;0.1061631;33.69;0;33.69;23.394;1541.581;
35.9230259474152;14.5026364975108;14:34:14.32;6/29/2017;10;2.149;354.88;2.27258492511768;0.87;0.3;5.23;-6.36;5.16;45.1;.03;34.82;34.85;96.6;166;634.7;16.12;-10.3;D;229.4096;2;13.290;3;2.2;204;4.13;14.50264711;35.92314541;0;0;1;N;1.014292;43;43;11;135;135;6.903528;0;1.11192;0.2096699;33.69;0;33.69;23.187;1541.379;
35.9230337403891;14.5026387933654;14:34:15.36;6/29/2017;10;1.738;359.93;2.27258492511768;0.87;2.8;7.63;-2.56;1.61;45.1;.02;34.78;34.80;96.6;166;634.7;16.12;-10.3;D;229.4096;2;12.413;3;1.91;203;3.47;14.50264711;35.92314541;0;0;1;N;0.831461;43;43;11;116;116;5.616201;0;0.9807166;-6.674223E-03;33.69;0;33.69;23.061;1541.252;
35.9230418212602;14.5026428201731;14:34:16.37;6/29/2017;10;1.948;359.93;2.27258492511768;0.87;4;8.78;-2.99;0.72;45.2;.07;34.83;34.90;96.6;166;634.7;16.12;-10.3;D;229.4096;2;11.500;3;2.15;202;1.93;14.50264711;35.92314541;0;0;1;N;0.471289;43;43;11;104;104;3.065142;0;1.102991;-5.529037E-02;33.63;0;33.67;23.1;1541.253;
35.9230499327007;14.5026413254105;14:34:17.38;6/29/2017;10;1.893;359.93;2.27258492511768;0.87;4.6;9.36;-1.14;10.1;45.1;.05;34.68;34.73;96.6;155;634.6;15.98;-9.7;D;245.6516;2;10.607;3;2.02;200;2.82;14.50264711;35.92314541;0;0;1;N;0.5925436;50;50;11;106;106;3.925934;0;1.039448;5.817441E-02;33.63;0;33.63;22.969;1541.042;
35.9230653006288;14.5026486904385;14:34:18.40;6/29/2017;10;3.766;3.27;2.27258492511768;0.87;0.5;5.43;5.82;5.69;45.1;.02;34.71;34.73;96.6;155;634.6;15.98;-9.7;D;245.6516;2;8.890;3;2.06;199;359.08;14.50264711;35.92314541;0;0;1;N;9.442944E-02;89;89;11;110;110;359.035;0;1.05749;3.990546E-02;33.63;0;33.63;23.002;1541.071;
35.923074839085;14.5026531320783;14:34:19.41;6/29/2017;10;2.41;3.27;2.27258492511768;0.87;357.4;2.45;0.31;-7.19;45.2;.01;34.66;34.67;96.6;155;634.6;15.98;-9.7;D;245.6516;2;7.849;3;2.13;199;356.03;14.50264711;35.92314541;0;0;1;N;0.4902224;66;66;11;102;102;356.2171;0;1.056196;-1.948042E-02;33.63;0;33.63;23.49;1541.552;
35.9230825215617;14.502653902376;14:34:20.43;6/29/2017;10;1.944;3.26;2.27258492511768;0.87;3.6;8.4;-0.67;-1.02;45.1;.01;34.99;35.00;96.5;140;634.5;15.91;-8.8;D;271.9286;2;7.005;3;1.99;204;354.98;14.50264711;35.92314541;0;0;1;N;0.5552468;48;48;11;80;80;355.7554;0;1.025976;-2.520541E-02;33.63;0;33.63;23.523;1541.583;
35.9230920146155;14.5026510377522;14:34:21.45;6/29/2017;10;1.981;358.87;2.27258492511768;0.87;351.6;356.88;4.03;5.49;45.1;.02;34.82;34.84;96.5;140;634.5;15.91;-8.8;D;271.9286;2;5.935;3;2.02;207;356.58;14.50264711;35.92314541;0;0;1;N;0.3288536;84;84;11;133;133;357.3647;0;1.040938;-9.587454E-03;33.63;0;33.63;23.738;1541.798;
35.9230998391568;14.5026485319824;14:34:22.47;6/29/2017;10;2.085;355.12;2.27258492511768;0.87;349;354.38;1.32;-3.1;45.1;.01;35.13;35.14;96.5;140;634.5;15.91;-8.8;D;271.9286;2;5.058;3;2.01;208;358.55;14.50264711;35.92314541;0;0;1;N;0.116116;65;65;11;146;146;358.8803;0;1.03176;1.264215E-02;33.56;0;33.56;24.366;1542.273;
35.923107492897;14.5026410354293;14:34:23.48;6/29/2017;10;2.109;352.78;2.27258492511768;0.87;345.5;351.01;-3.69;4.81;45.1;.01;34.80;34.81;96.5;173;634.4;16.02;-10.8;D;220.0231;3;107.181;3;2.03;206;0.01;14.5026413;35.92407346;-2.98704;31.8201;1;N;0.5523356;213;213;-25;159;159;1.717988;0;1.046009;3.029826E-02;33.56;0;33.56;24.396;1542.302;
35.9231205841029;14.5026387897624;14:34:24.50;6/29/2017;10;2.293;351.47;2.27258492511768;0.87;354.7;359.86;-8.1;-5.3;45.1;.04;34.75;34.79;96.5;173;634.4;16.02;-10.8;D;220.0231;3;105.729;3;2.16;205;0.12;14.5026413;35.92407346;-2.98704;31.79619;1;N;0.7646857;213;213;-25;141;141;3.00325;0;1.108824;4.406145E-03;33.56;0;33.56;24.283;1542.193;
35.9231287033985;14.5026373087877;14:34:25.51;6/29/2017;8;1.672;351.47;2.27258492511768;1.22;0.3;5.23;-14.4;-11.2;45;.14;34.12;34.26;96.5;173;634.4;16.02;-10.8;D;220.0231;3;104.829;3;1.87;203;0.2;14.5026413;35.92407346;-2.98704;31.73498;1;N;0.8998436;203;203;-25;118;118;4.137395;0;0.8808317;9.590331E-02;33.56;0;33.56;23.781;1541.706;
35.9231366088817;14.5026378976387;14:34:26.52;6/29/2017;10;1.672;351.47;2.27258492511768;1.22;10;14.54;-17.7;-2.44;45.1;.23;33.75;33.98;96.5;92;634.3;16.14;-5.7;D;413.6739;3;103.951;3;1.6;208;0.17;14.5026413;35.92407346;-2.98704;30.97685;1;N;0.8548172;177;177;-25;85;85;2.175977;0;0.8219376;6.514262E-02;33.56;0;33.56;23.746;1541.678;
35.9231435940735;14.5026395517802;14:34:27.54;6/29/2017;10;1.672;351.47;2.27258492511768;1.22;10.4;14.92;-19.5;4.3;45.1;.42;33.24;33.66;96.5;92;634.3;16.14;-5.7;D;413.6739;3;103.176;3;1.53;208;0.09;14.5026413;35.92407346;-2.98704;30.61438;1;N;0.6910734;166;166;-25;83;83;1.843312;0;0.7750194;0.1353299;33.5;0;33.5;23.435;1541.263;
35.9231502284786;14.5026397830933;14:34:28.55;6/29/2017;9;1.672;351.47;2.27258492511768;1.22;8.9;13.48;-22.4;14.2;45.1;.70;32.09;32.80;96.5;92;634.3;16.14;-5.7;D;413.6739;3;102.440;3;1.46;208;0.08;14.5026413;35.92407346;-2.98704;29.96021;1;N;0.662612;150;150;-25;88;88;1.808436;0;0.7691116;6.766115E-02;33.5;0;33.5;22.709;1540.568;
35.923157600924;14.5026418856401;14:34:29.57;6/29/2017;9;1.672;351.47;2.27258492511768;1.22;10.4;14.92;-22.8;3.1;45.1;1.06;31.57;32.63;96.5;184;634.2;16;-11.5;D;206.8044;3;101.622;3;1.75;206;359.97;14.5026413;35.92407346;-2.98704;29.60415;1;N;0.5006618;144;144;-25;81;81;1.295818;0;0.9001848;-5.420604E-02;33.5;0;33.5;22.142;1540.039;
35.9231662859713;14.502645558348;14:34:30.58;6/29/2017;5;1.672;351.47;2.27258492511768;1.62;8;12.62;-24.6;5.88;45;1.50;31.47;32.98;96.5;184;634.2;16;-11.5;D;206.8044;3;100.659;3;1.91;204;359.78;14.5026413;35.92407346;-2.98704;29.60415;1;N;0.1663471;137;137;-25;84;84;0.23673;0;0.9786905;-8.206096E-02;33.5;0;33.5;21.81;1539.749;
35.92317517707;14.5026481306313;14:34:31.59;6/29/2017;3;1.672;351.47;2.27258492511768;3.84;3.4;8.21;-24.8;5.58;45;1.92;30.23;32.15;96.5;172;634.1;16.07;-10.7;D;221.1977;3;99.673;3;2.05;204;359.65;14.5026413;35.92407346;-2.98704;29.28909;1;N;8.737265E-02;134;134;-25;96;96;359.4326;0;1.064871;-3.464791E-02;33.44;0;33.44;21.632;1539.486;
35.9231958575225;14.5026489731989;14:34:32.61;6/29/2017;3;1.672;351.47;2.27258492511768;3.84;0.6;5.52;-24.5;4.28;45;2.42;29.68;32.10;96.5;172;634.1;16.07;-10.7;D;221.1977;3;98.575;3;2.13;203;359.54;14.5026413;35.92407346;-2.98704;29.01916;1;N;0.2637685;135;135;-25;102;102;358.8737;0;1.095327;-6.014748E-02;33.44;0;33.44;21.081;1538.984;
35.9232066319304;14.5026479251328;14:34:33.62;6/29/2017;0;1.672;351.47;2.27258492511768;99.99;358;3.03;-24.7;2.05;45;2.91;29.47;32.38;96.5;172;634.1;16.07;-10.7;D;221.1977;3;97.471;3;2.15;201;359.44;14.5026413;35.92407346;-2.98704;29.01916;1;N;0.4299395;137;137;-25;108;108;358.3473;0;1.10293;-8.791226E-02;33.44;0;33.44;20.756;1538.703;
35.9232174063383;14.5026468770664;14:34:34.64;6/29/2017;0;1.672;351.47;2.27258492511768;99.99;355.1;0.24;-24.4;1.38;44.9;3.35;29.18;32.53;96.5;151;634.0;16.06;-9.4;D;251.9205;3;96.378;3;2.15;201;359.35;14.5026413;35.92407346;-2.98704;29.01916;1;N;0.5896246;137;137;-25;115;115;357.8417;0;1.099814;-0.1378089;33.44;0;33.44;20.64;1538.626;
35.9232281807462;14.5026458289997;14:34:35.67;6/29/2017;0;1.672;351.47;2.27258492511768;99.99;352.9;358.13;-24.8;1.39;45;3.81;28.92;32.73;96.5;151;634.0;16.06;-9.4;D;251.9205;3;95.194;3;2.15;200;359.27;14.5026413;35.92407346;-2.98704;29.01916;1;N;0.7227936;134;134;-25;120;120;357.4201;0;1.101739;-0.1070964;33.44;0;33.44;20.494;1538.524;
35.9232389551541;14.5026447809328;14:34:36.70;6/29/2017;0;1.672;351.47;2.27258492511768;99.99;351.6;356.88;-24.6;2.06;45;4.28;28.44;32.72;96.5;151;634.0;16.06;-9.4;D;251.9205;3;94.057;3;2.15;200;359.24;14.5026413;35.92407346;-2.98704;29.01916;1;N;0.7652051;135;135;-25;133;133;357.2859;0;1.10563;-4.138405E-02;33.44;0;33.44;20.376;1538.445;
35.9232497295619;14.5026437328655;14:34:37.73;6/29/2017;0;1.672;351.47;2.27258492511768;99.99;351.3;356.59;-24.7;1;44.9;4.71;28.08;32.79;96.5;151;634.0;16.06;-9.4;D;251.9205;3;92.981;3;2.17;200;359.24;14.5026413;35.92407346;-2.98704;29.01916;1;N;0.7556834;135;135;-25;134;134;357.3161;0;1.113889;-5.168819E-02;33.38;0;33.38;20.465;1538.46;
35.9232605039697;14.502642684798;14:34:38.74;6/29/2017;0;1.672;351.47;2.27258492511768;99.99;352.4;357.65;-24.1;0.37;44.9;5.18;27.52;32.70;96.5;151;634.0;16.06;-9.4;D;251.9205;3;91.880;3;2.12;200;359.22;14.5026413;35.92407346;-2.98704;29.01916;1;N;0.7745544;138;138;-25;121;121;357.2563;0;1.088384;-7.208306E-02;33.38;0;33.38;20.323;1538.361;
35.9232712783775;14.5026416367301;14:34:39.75;6/29/2017;0;1.672;351.47;2.27258492511768;99.99;352.6;357.84;-24.5;1.02;44.9;5.60;27.24;32.84;96.5;151;634.0;16.06;-9.4;D;251.9205;3;90.760;3;2.11;199;359.2;14.5026413;35.92407346;-2.98704;29.01916;1;N;0.8057402;136;136;-25;120;120;357.1577;0;1.083958;-0.0604907;33.38;0;33.38;20.232;1538.309;
35.9232820527852;14.502640588662;14:34:40.77;6/29/2017;0;1.672;351.47;2.27258492511768;99.99;352.3;357.55;-24.6;1.01;44.9;6.06;26.67;32.73;97;129;576.0;16.12;-8;D;267.907;3;89.656;3;2.14;199;359.19;14.5026413;35.92407346;-2.98704;29.01916;1;N;0.8105626;135;135;-25;121;121;357.1425;0;1.10093;-2.566531E-02;33.36;0;33.36;20.215;1538.288;
35.9232928271929;14.5026395405936;14:34:41.78;6/29/2017;0;1.672;351.47;2.27258492511768;99.99;352.1;357.36;-24.5;1.48;44.9;6.53;26.34;32.87;97;129;576.0;16.12;-8;D;267.907;3;88.520;3;2.15;203;359.2;14.5026413;35.92407346;-2.98704;29.01916;1;N;0.7894415;135;135;-25;122;122;357.2093;0;1.105106;-0.018186;33.31;0;33.31;20.181;1538.189;
35.9233036016006;14.502638492525;14:34:42.80;6/29/2017;0;1.672;351.47;2.27258492511768;99.99;352;357.26;-24.6;1.9;44.9;6.98;25.93;32.90;97;129;576.0;16.12;-8;D;267.907;3;87.339;3;2.18;207;359.21;14.5026413;35.92407346;-2.98704;29.01916;1;N;0.7576051;135;135;-25;132;132;357.31;0;1.123366;-0.0199868;33.31;0;33.31;20.116;1538.165;
35.9233143760083;14.5026374445169;14:34:43.82;6/29/2017;0;1.672;351.47;2.27258492511768;99.99;352.4;357.65;-24.8;1.94;44.9;7.47;25.23;32.70;96.4;158;633.6;15.96;-9.9;D;240.6076;3;86.197;3;2.27;205;359.22;14.5026413;35.92407346;-2.98704;29.01916;1;N;0.7346639;134;134;-25;121;121;357.3826;0;1.170052;-2.533247E-02;33.31;0;33.31;20.035;1538.128;
35.9233251504159;14.5026363964527;14:34:44.84;6/29/2017;0;1.672;351.47;2.27258492511768;99.99;352.8;358.03;-25.2;1.46;44.9;8.01;24.93;32.94;96.4;158;633.6;15.96;-9.9;D;240.6076;3;85.034;3;2.32;204;359.22;14.5026413;35.92407346;-2.98704;29.01916;1;N;0.7237716;122;122;-25;120;120;357.417;0;1.190845;-3.638291E-02;33.31;0;33.31;19.982;1538.119;
35.9233359248235;14.5026353483882;14:34:45.85;6/29/2017;0;1.672;351.47;2.27258492511768;99.99;352.8;358.03;-24.1;1.4;44.8;8.50;24.51;33.01;96.4;158;633.6;15.96;-9.9;D;240.6076;3;83.839;3;2.33;203;359.22;14.5026413;35.92407346;-2.98704;29.01916;1;N;0.7216683;137;137;-25;120;120;357.4236;0;1.196476;-2.426934E-02;33.31;0;33.31;19.928;1538.114;
35.9233466992311;14.5026343003235;14:34:46.87;6/29/2017;0;1.672;351.47;2.27258492511768;99.99;352.8;358.03;-24.6;1.9;44.8;9.02;23.99;33.01;96.4;161;633.5;15.94;-10.1;D;236.087;3;82.615;3;2.37;202;359.22;14.5026413;35.92407346;-2.98704;29.01916;1;N;0.707543;135;135;-25;120;120;357.4684;0;1.21905;-9.173383E-03;33.31;0;33.31;19.902;1538.131;
35.9233574736386;14.5026332522585;14:34:47.88;6/29/2017;0;1.672;351.47;2.27258492511768;99.99;352.9;358.13;-24.7;-0.56;44.8;9.49;23.53;33.02;96.4;161;633.5;15.94;-10.1;D;236.087;3;81.338;3;2.38;201;359.23;14.5026413;35.92407346;-2.98704;29.01916;1;N;0.6754808;135;135;-25;120;120;357.5698;0;1.22139;-1.417747E-02;33.31;0;33.31;19.802;1538.076;
35.9233682480461;14.5026322041932;14:34:48.89;6/29/2017;0;1.672;351.47;2.27258492511768;99.99;352.5;357.74;-24.2;0.86;44.7;10.00;23.13;33.13;96.4;150;633.4;15.96;-9.4;D;253.36;3;80.066;3;2.35;200;359.24;14.5026413;35.92407346;-2.98704;29.01916;1;N;0.6595309;138;138;-25;122;122;357.6203;0;1.210781;-2.590696E-02;33.31;0;33.31;19.771;1538.087;
35.9233790224536;14.5026311561276;14:34:49.93;6/29/2017;0;1.672;351.47;2.27258492511768;99.99;352.4;357.65;-24.2;0.24;44.7;10.48;22.68;33.16;96.4;150;633.4;15.96;-9.4;D;253.36;3;78.812;3;2.31;202;359.23;14.5026413;35.92407346;-2.98704;29.01916;1;N;0.6529949;136;136;-25;122;122;357.6411;0;1.186922;-4.075809E-02;33.25;0;33.25;19.847;1538.075;
